     2.11           OBSERVATION DATA    Mixed(MIXED)        RINEX VERSION / TYPE
cnvtToRINEX 3.14.0  convertToRINEX OPR  20230929 165904 UTC PGM / RUN BY / DATE 
----------------------------------------------------------- COMMENT             
base                                                        MARKER NAME         
                                                            MARKER NUMBER       
GNSS Observer       Trimble                                 OBSERVER / AGENCY   
5450487277          TRIMBLE R10         5.22                REC # / TYPE / VERS 
                    TRMR10          NONE                    ANT # / TYPE        
 -2718365.1939 -4311931.9269  3820944.5648                  APPROX POSITION XYZ 
        1.5550        0.0000        0.0000                  ANTENNA: DELTA H/E/N
     1     1     0                                          WAVELENGTH FACT L1/2
     5    C1    C2    L1    L2    P2                        # / TYPES OF OBSERV 
    15.000                                                  INTERVAL            
  2023     9    22    15    45   30.0000000     GPS         TIME OF FIRST OBS   
  2023     9    22    21    34   45.0000000     GPS         TIME OF LAST OBS    
     0                                                      RCV CLOCK OFFS APPL 
    18                                                      LEAP SECONDS        
    32                                                      # OF SATELLITES     
   G02   924     0   924   915   915                        PRN / # OF OBS      
   G03   450   450   450   900   450                        PRN / # OF OBS      
   G04   268   268   268   528   260                        PRN / # OF OBS      
   G08   934   934   934  1868   934                        PRN / # OF OBS      
   G10  1280  1280  1280  2560  1280                        PRN / # OF OBS      
   G13    32     0    32     0     0                        PRN / # OF OBS      
   G15   338   338   338   676   338                        PRN / # OF OBS      
   G16   290     0   290   263   263                        PRN / # OF OBS      
   G18   672   672   672  1344   672                        PRN / # OF OBS      
   G21  1026     0  1026  1003  1003                        PRN / # OF OBS      
   G23   856   856   856  1712   856                        PRN / # OF OBS      
   G24   500   500   500  1000   500                        PRN / # OF OBS      
   G26   262   262   262   523   261                        PRN / # OF OBS      
   G27   930   928   929  1856   928                        PRN / # OF OBS      
   G28   838   838   838  1676   838                        PRN / # OF OBS      
   G29   160   160   160   320   160                        PRN / # OF OBS      
   G31   636   635   635  1270   635                        PRN / # OF OBS      
   G32  1358  1358  1358  2716  1358                        PRN / # OF OBS      
   R01  1074  1062  1074  1560   530                        PRN / # OF OBS      
   R02   582   581   581  1156   576                        PRN / # OF OBS      
   R06   318     0   318     0     0                        PRN / # OF OBS      
   R07   758   758   758  1419   673                        PRN / # OF OBS      
   R08  1248  1248  1248  2398  1164                        PRN / # OF OBS      
   R10   536     0   536     0     0                        PRN / # OF OBS      
   R11   488   488   488   974   486                        PRN / # OF OBS      
   R12   236   236   236   469   233                        PRN / # OF OBS      
   R17   542   541   542   982   450                        PRN / # OF OBS      
   R18   164   162   164   261   104                        PRN / # OF OBS      
   R21   424   424   424   845   422                        PRN / # OF OBS      
   R22   800   800   800  1596   796                        PRN / # OF OBS      
   R23  1160     0  1159     0     0                        PRN / # OF OBS      
   R24   962   960   962  1843   891                        PRN / # OF OBS      
CARRIER PHASE MEASUREMENTS: PHASE SHIFTS REMOVED            COMMENT             
                                                            END OF HEADER       
 23  9 22 15 45 30.0000000  0 15G10G13G15G16G18G23G26G27G29R06R07R08
                                R21R22R23
  21666551.359 6  21666558.055 8 113858504.78416  88720944.67218  21666559.40248
  24159365.195 4                 126958315.43014                
  21651163.383 6  21651167.832 7 113777631.27316  88657910.46217  21651168.59447
  23349849.172 5                 122704261.39415  95613745.70955  23349855.42245
  20839154.953 6  20839159.941 8 109510497.33416  85332873.90118  20839160.14147
  20334981.086 7  20334985.773 8 106861048.67017  83268397.88818  20334986.07447
  24043781.313 3  24043791.719 8 126350903.09313  98455290.40018  24043792.62146
  22594992.391 5  22595000.371 8 118737489.55315  92522742.10418  22595000.14147
  23197974.750 6  23197982.039 7 121906171.05916  94991818.71017  23197982.34847
  20428743.273 5                 109011681.17615                
  19437618.313 7  19437623.090 7 104051100.05517  80928645.20617  19437622.473 7
  22355355.133 5  22355361.359 7 119711920.65315  93109308.31517  22355361.875 6
  20288860.023 7  20288864.254 7 108569832.30417  84443210.89617  20288864.660 6
  19938702.531 8  19938706.707 7 106434150.66718  82782198.45417  19938706.504 7
  23608792.109 4                 126291112.77614                
 23  9 22 15 45 45.0000000  0 15G10G13G15G16G18G23G26G27G29R06R07R08
                                R21R22R23
  21656608.414 7  21656615.242 8 113806255.189 7  88680230.719 8  21656616.46548
  24161722.727 5                 126970701.348 5                
  21650696.492 6  21650701.172 7 113775177.665 6  88655998.540 7  21650701.86747
  23348833.289 5                 122698922.800 5  95609585.70045  23348839.46145
  20835643.766 6  20835648.762 8 109492046.997 6  85318497.010 8  20835648.97746
  20330636.602 7  20330641.074 8 106838218.488 7  83250608.123 8  20330641.68047
  24045727.836 4  24045737.539 8 126361130.269 4  98463259.572 8  24045738.59046
  22582307.875 5  22582315.379 7 118670829.446 5  92470799.174 7  22582315.71547
  23202923.336 6  23202929.703 7 121932176.156 6  95012082.375 7  23202930.62547
  20431102.203 5                 109024268.053 5                
  19428623.789 7  19428627.434 7 104002952.784 7  80891197.338 7  19428627.871 7
  22338933.961 5  22338941.160 7 119623989.640 5  93040917.565 7  22338941.438 6
  20287653.563 7  20287658.570 7 108563375.853 7  84438189.205 7  20287658.273 7
  19929225.211 8  19929230.059 7 106383559.233 8  82742849.564 7  19929228.977 7
  23594261.953 4                 126213393.934 4                
 23  9 22 15 46  0.0000000  0 15G10G13G15G16G18G23G26G27G29R06R07R08
                                R21R22R23
  21646680.047 7  21646686.781 8 113754080.133 7  88639574.833 8  21646688.05548
  24164099.094 4                 126983189.789 4                
  21650257.242 6  21650261.672 7 113772865.789 6  88654197.054 7  21650261.99247
  23347839.281 5                 122693695.218 5  95605512.20345  23347844.94145
  20832143.273 6  20832148.688 8 109473652.732 6  85304163.792 8  20832148.87947
  20326308.914 7  20326313.422 8 106815477.966 7  83232888.227 8  20326314.14147
  24047680.750 4  24047691.355 8 126371393.604 4  98471256.911 8  24047691.80546
  22569637.492 5  22569645.391 8 118604247.946 5  92418917.484 8  22569645.16447
  23207882.227 6  23207889.398 7 121958235.639 6  95032388.399 7  23207890.19947
  20433487.438 5                 109036991.723 5                
  19419663.180 8  19419668.445 7 103954984.682 8  80853888.818 7  19419667.355 7
  22322526.203 5  22322532.402 7 119536122.386 5  92972576.392 7  22322532.684 6
  20286466.352 7  20286470.793 7 108557023.696 7  84433248.615 7  20286471.555 7
  19919760.656 8  19919765.063 7 106333037.136 8  82703554.599 7  19919765.164 7
  23579729.055 5                 126135647.974 5                
 23  9 22 15 46 15.0000000  0 15G10G13G15G16G18G23G26G27G29R06R07R08
                                R21R22R23
  21636765.422 7  21636772.230 8 113701978.816 7  88598976.407 8  21636773.03548
  24166495.078 5                 126995779.640 5                
  21649843.531 6  21649848.039 7 113770694.790 6  88652505.341 7  21649848.80947
  23346865.359 5                 122688577.441 5  95601524.27645  23346870.87945
  20828653.672 6  20828658.129 8 109455313.971 6  85289873.836 8  20828658.76646
  20321998.789 7  20322003.465 8 106792826.301 7  83215237.572 8  20322004.17247
  24049640.914 4  24049650.805 8 126381692.019 4  98479281.596 8  24049651.21947
  22556983.414 5  22556990.828 8 118537744.740 5  92367096.800 8  22556991.48447
  23212851.422 5  23212859.848 7 121984348.611 5  95052736.104 7  23212859.24647
  20435897.898 4                 109049851.210 4                
  19410735.320 7  19410740.383 7 103907195.410 7  80816719.388 7  19410740.000 7
  22306129.000 5  22306135.840 7 119448318.542 5  92904284.562 7  22306136.121 6
  20285299.242 7  20285302.906 7 108550775.120 7  84428388.588 7  20285303.430 6
  19910309.977 7  19910313.410 7 106282583.906 7  82664313.205 7  19910313.504 7
  23565190.039 4                 126057874.629 4                
 23  9 22 15 46 30.0000000  0 15G10G13G15G16G18G23G26G27G29R06R07R08
                                R21R22R23
  21626864.727 7  21626871.762 8 113649950.576 7  88558434.938 8  21626872.72748
  24168909.914 5                 127008469.993 5                
  21649457.328 6  21649462.191 7 113768663.889 6  88650922.796 7  21649462.53547
  23345911.445 5                 122683568.834 5  95597621.41245  23345918.12945
  20825174.313 6  20825179.230 8 109437030.094 6  85275626.637 8  20825179.53546
  20317704.820 7  20317709.438 8 106770262.675 7  83197655.505 8  20317710.23847
  24051606.742 3  24051617.574 8 126392024.522 3  98487332.850 8  24051618.13746
  22544342.930 5  22544350.477 8 118471319.511 5  92315336.881 8  22544350.90247
  23217830.742 5  23217838.535 7 122010514.171 5  95073124.789 7  23217839.05947
  20438330.922 4                 109062845.164 4                
  19401840.836 7  19401846.469 7 103859584.202 7  80779688.456 7  19401845.496 7
  22289744.305 5  22289750.172 7 119360578.067 5  92836041.995 7  22289750.566 6
  20284150.906 7  20284155.109 7 108544629.789 7  84423608.847 7  20284155.168 7
  19900870.273 7  19900874.070 7 106232199.125 7  82625125.055 7  19900873.848 7
  23550645.789 3                 125980073.490 3                
 23  9 22 15 46 45.0000000  0 15G10G13G15G16G18G23G26G27G29R06R07R08
                                R21R22R23
  21616978.031 7  21616985.246 8 113597995.418 7  88517950.411 8  21616985.91448
  24171344.016 5                 127021260.543 5                
  21649097.289 6  21649102.527 7 113766772.814 6  88649449.187 7  21649103.02747
  23344979.156 5                 122678668.950 5  95593803.18745  23344985.69145
  20821705.547 6  20821709.668 8 109418801.101 6  85261422.205 8  20821710.33646
  20313427.938 6  20313432.637 8 106747786.862 6  83180141.876 8  20313433.33247
  24053578.602 3  24053589.617 8 126402390.632 3  98495410.257 8  24053590.64846
  22531717.406 5  22531725.113 8 118404972.410 5  92263637.836 8  22531724.99247
  23222819.969 5  23222827.785 8 122036731.914 5  95093554.130 8  23222828.09447
  20440792.281 4                 109075973.294 4                
  19392980.563 7  19392984.691 7 103812151.121 7  80742796.066 7  19392984.426 7
  22273370.117 5  22273377.078 7 119272900.977 5  92767848.749 7  22273377.473 6
  20283020.977 7  20283025.496 7 108538587.540 7  84418909.303 7  20283025.902 6
  19891444.500 7  19891448.508 7 106181883.085 7  82585990.355 7  19891447.969 7
  23536097.453 4                 125902244.501 4                
 23  9 22 15 47  0.0000000  0 15G10G13G15G16G18G23G26G27G29R06R07R08
                                R21R22R23
  21607104.789 7  21607112.176 8 113546113.455 7  88477522.918 8  21607113.20348
  24173796.711 5                 127034151.115 5                
  21648763.695 6  21648768.984 7 113765021.574 6  88648084.563 7  21648769.69147
  23344067.852 5                 122673877.665 5  95590069.75845  23344073.84045
  20818247.266 6  20818252.094 8 109400627.226 6  85247260.727 8  20818252.53947
  20309167.742 7  20309171.801 8 106725398.922 7  83162696.725 8  20309172.26247
  24055557.805 3  24055569.527 8 126412790.204 3  98503513.763 8  24055569.89546
  22519107.477 5  22519114.539 8 118338704.026 5  92212000.145 8  22519115.12547
  23227818.531 6  23227826.527 7 122063001.820 6  95114024.124 7  23227827.12147
  20443277.867 4                 109089235.164 4                
  19384152.625 7  19384157.422 7 103764896.535 7  80706042.504 7  19384157.156 7
  22257010.383 5  22257015.320 7 119185287.985 5  92699705.355 7  22257015.832 6
  20281911.148 7  20281916.672 7 108532648.588 7  84414290.094 7  20281916.375 7
  19882032.016 7  19882035.652 7 106131636.346 7  82546909.536 7  19882035.168 7
  23521541.445 4                 125824388.206 4                
 23  9 22 15 47 15.0000000  0 15G10G13G15G16G18G23G26G27G29R06R07R08
                                R21R22R23
  21597245.680 7  21597252.691 8 113494302.283 7  88437150.585 8  21597254.02348
  24176268.313 5                 127047138.874 5                
  21648457.156 6  21648462.082 7 113763407.359 6  88646826.696 7  21648462.51647
  23343176.070 5                 122669192.071 5  95586418.54745  23343181.88345
  20814799.328 7  20814803.789 8 109382505.968 7  85233140.237 8  20814804.77046
  20304923.445 7  20304927.527 8 106703096.067 7  83145317.866 8  20304928.14847
  24057542.148 4  24057553.035 7 126423220.239 4  98511640.996 7  24057554.01647
  22506511.172 6  22506519.754 8 118272512.066 6  92160421.982 8  22506519.55147
  23232827.469 5  23232834.801 8 122089321.046 5  95134532.548 8  23232834.92247
  20445787.180 4                 109102627.739 4                
  19375357.672 7  19375362.813 7 103717818.070 7  80669425.924 7  19375362.309 7
  22240660.445 5  22240665.180 7 119097736.887 5  92631610.075 7  22240666.277 6
  20280820.094 7  20280825.609 7 108526810.476 7  84409749.311 7  20280825.547 7
  19872631.234 7  19872634.918 7 106081456.462 7  82507880.734 7  19872634.816 7
  23506982.320 4                 125746501.969 4                
 23  9 22 15 47 30.0000000  0 15G10G13G15G16G18G23G26G27G29R06R07R08
                                R21R22R23
  21587400.273 7  21587406.934 8 113442563.303 7  88396834.500 8  21587408.00448
  24178758.992 5                 127060224.929 5                
  21648175.914 6  21648180.379 7 113761931.423 6  88645676.591 7  21648181.68447
  23342303.945 5                 122664613.225 5  95582850.56245  23342311.09045
  20811361.281 6  20811365.738 8 109364438.875 6  85219061.977 8  20811366.46946
  20300695.977 7  20300700.844 8 106680879.666 7  83128006.386 8  20300701.19547
  24059534.031 4  24059543.934 8 126433681.875 4  98519792.864 8  24059544.87147
  22493929.797 5  22493937.195 8 118206398.289 5  92108904.767 8  22493937.35247
  23237845.109 6  23237852.754 7 122115690.786 6  95155080.326 7  23237853.64147
  20448321.258 4                 109116152.002 4                
  19366596.883 7  19366601.945 7 103670917.227 7  80632947.485 7  19366601.094 7
  22224322.133 5  22224327.746 7 119010249.595 5  92563564.452 7  22224328.145 6
  20279749.039 7  20279753.262 7 108521074.754 7  84405288.174 7  20279753.203 7
  19863243.516 7  19863247.500 7 106031345.341 7  82468905.405 7  19863247.395 7
  23492417.055 2                 125668587.365 2                
 23  9 22 15 47 45.0000000  0 15G10G13G15G16G18G23G26G27G29R06R07R08
                                R21R22R23
  21577568.500 7  21577575.172 8 113390896.532 7  88356574.698 8  21577576.31348
  24181267.570 5                 127073409.010 5                
  21647921.609 6  21647926.383 7 113760593.416 6  88644633.948 7  21647927.23047
  23341453.242 5                 122660141.254 5  95579365.85745  23341459.59045
  20807932.727 6  20807938.211 8 109346425.998 6  85205025.952 8  20807938.60246
  20296484.672 7  20296488.883 8 106658749.591 7  83110762.159 8  20296489.58647
  24061531.023 4  24061541.809 8 126444174.785 4  98527969.114 8  24061542.19947
  22481363.336 5  22481371.355 8 118140363.138 5  92057448.790 8  22481371.80547
  23242872.391 6  23242880.926 7 122142110.790 6  95175667.290 7  23242880.93447
  20450880.430 4                 109129807.501 4                
  19357867.766 7  19357872.887 7 103624194.305 7  80596607.440 7  19357872.387 7
  22207996.422 5  22208003.668 7 118922826.549 5  92495568.799 7  22208003.359 6
  20278695.484 7  20278699.508 7 108515441.506 7  84400906.719 7  20278700.504 7
  19853869.406 7  19853873.855 7 105981303.263 7  82429983.792 7  19853873.449 7
  23477845.969 2                 125590644.917 2                
 23  9 22 15 48  0.0000000  0 15G10G13G15G16G18G23G26G27G29R06R07R08
                                R21R22R23
  21567750.031 7  21567757.168 8 113339301.948 7  88316371.127 8  21567757.72748
  24183794.914 4                 127086690.682 4                
  21647692.984 6  21647698.430 7 113759393.071 6  88643698.592 7  21647699.03147
  23340623.273 5                 122655775.689 5  95575964.07045  23340629.52345
  20804515.789 6  20804521.160 8 109328467.401 6  85191032.223 8  20804521.98047
  20292289.930 7  20292294.648 8 106636705.679 7  83093585.072 8  20292295.33647
  24063533.367 4  24063543.977 8 126454698.564 4  98536169.401 8  24063544.97347
  22468812.250 5  22468820.441 8 118074406.781 5  92006054.243 8  22468820.28547
  23247910.000 6  23247918.199 7 122168580.809 6  95196293.196 7  23247918.62947
  20453463.570 4                 109143593.683 4                
  19349173.359 8  19349179.078 7 103577649.363 8  80560405.822 7  19349177.875 7
  22191682.344 5  22191689.496 7 118835468.284 5  92427623.529 7  22191689.305 6
  20277662.836 7  20277667.809 7 108509910.872 7  84396605.093 7  20277667.160 7
  19844508.391 8  19844511.680 7 105931330.479 8  82391116.079 7  19844511.043 7
  23463271.297 3                 125512674.603 3                
 23  9 22 15 48 15.0000000  0 15G10G13G15G16G18G23G26G27G29R06R07R08
                                R21R22R23
  21557946.508 7  21557953.098 8 113287781.732 7  88276225.519 8  21557953.96548
  24186340.883 4                 127100071.838 4                
  21647491.406 6  21647496.879 7 113758332.619 6  88642872.249 7  21647497.49247
  23339812.891 5                 122651518.520 5  95572646.78745  23339819.82045
  20801108.961 6  20801114.367 8 109310565.319 6  85177082.537 8  20801114.93847
  20288112.039 7  20288116.707 8 106614749.938 7  83076476.690 8  20288117.16447
  24065541.813 5  24065552.906 8 126465255.041 5  98544395.151 8  24065553.48847
  22456277.102 5  22456284.840 8 118008531.776 5  91954723.068 8  22456285.21147
  23252956.898 6  23252965.449 7 122195102.737 6  95216959.561 7  23252965.00447
  20456072.633 4                 109157512.445 4                
  19340512.094 7  19340517.902 7 103531284.601 7  80524344.352 7  19340516.699 7
  22175381.609 5  22175388.348 7 118748177.110 5  92359730.416 7  22175388.512 6
  20276648.945 7  20276651.688 7 108504484.937 7  84392384.890 7  20276652.914 7
  19835159.336 7  19835163.164 7 105881429.423 7  82352304.160 7  19835163.109 7
  23448690.563 3                 125434678.905 3                
 23  9 22 15 48 30.0000000  0 15G10G13G15G16G18G23G26G27G29R06R07R08
                                R21R22R23
  21548156.773 7  21548163.668 8 113236338.180 7  88236139.625 8  21548164.44948
  24188906.125 3                 127113554.308 3                
  21647316.742 6  21647321.598 7 113757414.040 6  88642156.440 7  21647322.85247
  23339023.680 5                 122647371.574 5  95569415.29845  23339030.22745
  20797713.781 6  20797718.379 8 109292722.142 6  85163178.739 8  20797719.21146
  20283951.211 7  20283956.086 8 106592884.515 7  83059438.686 8  20283956.37547
  24067557.313 4  24067567.813 8 126475846.109 4  98552647.882 8  24067568.85547
  22443757.625 5  22443765.637 8 117942740.795 5  91903457.365 8  22443765.36347
  23258014.039 5  23258021.859 7 122221678.508 5  95237667.891 7  23258021.90647
  20458705.328 4                 109171565.478 4                
  19331885.164 7  19331889.938 7 103485102.783 7  80488425.146 7  19331889.316 7
  22159094.813 5  22159101.484 7 118660956.221 5  92291892.028 7  22159100.473 7
  20275655.086 7  20275658.859 7 108499166.379 7  84388248.201 7  20275659.266 7
  19825825.406 7  19825828.574 7 105831602.891 7  82313550.178 7  19825828.566 7
  23434105.617 3                 125356660.388 3                
 23  9 22 15 48 45.0000000  0 15G10G13G15G16G18G23G26G27G29R06R07R08
                                R21R22R23
  21538381.859 7  21538388.527 8 113184971.721 7  88196113.820 8  21538389.69948
  24191490.148 4                 127127138.754 4                
  21647169.328 7  21647173.430 7 113756637.454 7  88641551.267 7  21647174.55147
  23338255.648 5                 122643335.127 5  95566269.99845  23338262.52045
  20794328.969 6  20794334.645 8 109274938.434 6  85149321.292 8  20794335.35247
  20279807.664 7  20279812.617 8 106571109.816 7  83042471.381 8  20279813.37947
  24069579.617 4  24069590.469 8 126486471.964 4  98560927.707 8  24069590.82447
  22431254.016 5  22431262.008 8 117877034.579 5  91852257.707 8  22431261.80547
  23263081.961 6  23263089.441 7 122248308.414 6  95258418.391 7  23263089.87547
  20461363.531 4                 109185753.006 4                
  19323292.148 7  19323297.238 7 103439104.115 7  80452648.425 7  19323296.621 7
  22142818.609 5  22142826.301 7 118573806.268 5  92224108.777 7  22142825.875 7
  20274680.867 7  20274685.305 7 108493955.646 7  84384195.405 7  20274685.945 7
  19816505.820 7  19816509.664 7 105781851.668 7  82274854.785 7  19816509.293 7
  23419516.297 4                 125278619.679 4                
 23  9 22 15 49  0.0000000  0 15G10G13G15G16G18G23G26G27G29R06R07R08
                                R21R22R23
  21528621.797 7  21528628.918 8 113133680.839 7  88156146.912 8  21528629.56648
  24194096.031 3                 127140822.959 3                
  21647048.164 7  21647052.609 8 113756001.093 7  88641055.368 8  21647053.73447
  23337508.570 5                 122639407.271 5  95563209.31045  23337514.86345
  20790956.445 6  20790960.961 8 109257212.625 6  85135508.942 8  20790961.63746
  20275680.930 7  20275685.387 8 106549424.012 7  83025573.337 8  20275685.90247
  24071607.945 4  24071618.324 8 126497130.597 4  98569233.075 8  24071618.73447
  22418766.523 5  22418773.570 8 117811411.897 5  91801123.154 8  22418774.32847
  23268158.945 6  23268167.016 8 122274990.558 6  95279209.617 8  23268167.42247
  20464047.711 5                 109200072.820 5                
  19314733.180 7  19314737.734 7 103393287.506 7  80417013.295 7  19314737.469 7
  22126556.828 5  22126564.180 7 118486726.255 5  92156379.902 7  22126563.988 7
  20273726.828 7  20273731.020 7 108488851.257 7  84380225.297 7  20273731.543 7
  19807199.547 7  19807203.250 7 105732174.340 7  82236216.860 7  19807202.422 7
  23404924.305 3                 125200555.169 3                
 23  9 22 15 49 15.0000000  0 15G10G13G15G16G18G23G26G27G29R06R07R08
                                R21R22R23
  21518875.797 7  21518882.355 8 113082464.704 7  88116238.233 8  21518883.37948
  24196718.328 3                 127154606.010 3                
  21646953.250 7  21646957.898 7 113755504.010 7  88640668.005 7  21646958.51647
  23336781.328 5                 122635586.981 5  95560232.37746  23336787.30546
  20787593.953 6  20787598.969 8 109239544.104 6  85121741.252 8  20787599.78546
  20271571.125 7  20271575.879 8 106527826.309 7  83008743.956 8  20271575.74247
  24073642.313 4  24073652.773 8 126507821.067 4  98577563.226 8  24073653.55947
  22406294.633 5  22406302.621 8 117745872.394 5  91750053.417 8  22406302.84847
  23273246.648 6  23273254.195 7 122301724.108 6  95300040.893 7  23273254.14847
  20466756.266 4                 109214523.727 4                
  19306207.844 8  19306212.590 7 103347652.062 8  80381519.063 7  19306212.324 7
  22110309.211 5  22110315.797 7 118399715.656 5  92088705.041 7  22110315.371 7
  20272792.523 7  20272796.973 7 108483852.522 7  84376337.354 7  20272797.145 7
  19797906.570 7  19797911.184 7 105682570.683 7  82197636.244 7  19797909.969 7
  23390325.680 4                 125122466.396 4                
 23  9 22 15 49 30.0000000  0 15G10G13G15G16G18G23G26G27G29R06R07R08
                                R21R22R23
  21509143.414 7  21509150.395 8 113031322.483 7  88076387.166 8  21509151.37948
  24199359.617 4                 127168486.482 4                
  21646885.000 7  21646890.164 7 113755144.932 7  88640388.174 7  21646890.45347
  23336074.813 5                 122631872.823 5  95557338.15345  23336080.37945
  20784242.625 6  20784247.176 8 109221931.805 6  85108017.356 8  20784248.14846
  20267477.695 7  20267482.066 8 106506315.369 7  82991982.176 8  20267482.50847
  24075682.672 4  24075693.469 8 126518541.658 4  98585916.869 8  24075693.75847
  22393838.789 5  22393846.762 8 117680415.175 5  91699047.781 8  22393847.03947
  23278343.250 6  23278351.051 7 122328507.557 6  95320911.053 7  23278351.11347
  20469488.563 4                 109229104.005 4                
  19297716.078 7  19297721.137 7 103302196.794 7  80346164.961 7  19297720.520 7
  22094072.922 5  22094080.328 7 118312773.710 5  92021083.588 7  22094080.492 7
  20271878.289 7  20271882.965 7 108478958.276 7  84372530.695 7  20271883.141 7
  19788628.156 8  19788631.730 7 105633039.626 8  82159112.076 7  19788631.254 7
  23375723.438 4                 125044352.689 4                
 23  9 22 15 49 45.0000000  0 15G10G13G15G16G18G23G26G27G29R06R07R08
                                R21R22R23
  21499425.984 7  21499433.098 8 112980256.596 7  88036595.564 8  21499433.90648
  24202020.766 4                 127182466.581 4                
  21646843.930 6  21646847.695 7 113754926.364 6  88640217.831 7  21646848.71547
  23335388.938 5                 122628267.185 5  95554528.56845  23335394.98445
  20780901.852 6  20780907.371 8 109204378.462 6  85094339.408 8  20780907.13746
  20263401.406 7  20263406.563 8 106484893.762 7  82975289.999 8  20263406.67247
  24077728.953 4  24077740.336 8 126529294.783 4  98594295.864 8  24077740.61747
  22381398.758 5  22381407.391 8 117615043.260 5  91648108.623 8  22381407.18047
  23283449.852 6  23283457.145 7 122355343.223 6  95341821.894 7  23283458.26647
  20472245.719 4                 109243816.092 4                
  19289258.563 7  19289264.504 7 103256924.509 7  80310953.189 7  19289264.117 7
  22077850.219 5  22077857.301 7 118225903.810 5  91953518.161 7  22077856.992 7
  20270983.758 7  20270988.273 7 108474171.303 7  84368807.462 7  20270988.918 7
  19779363.320 8  19779366.324 7 105583584.377 8  82120646.870 7  19779366.191 7
  23361117.086 5                 124966216.613 5                
 23  9 22 15 50  0.0000000  0 15G10G13G15G16G18G23G26G27G29R06R07R08
                                R21R22R23
  21489723.320 7  21489730.359 8 112929268.306 7  87996864.431 8  21489731.23048
  24204700.789 5                 127196547.079 5                
  21646828.070 6  21646833.086 7 113754848.798 6  88640157.361 7  21646833.87547
  23334723.586 5                 122624770.938 5  95551804.13646  23334730.15246
  20777573.570 6  20777578.516 8 109186885.156 6  85080708.249 8  20777578.92646
  20259341.977 7  20259346.250 8 106463562.336 7  82958668.103 8  20259346.99647
  24079781.883 4  24079792.031 8 126540081.130 4  98602700.746 8  24079792.62947
  22368974.258 5  22368983.746 8 117549757.974 5  91597236.987 8  22368983.96947
  23288566.563 5  23288574.313 7 122382231.951 5  95362774.073 7  23288574.65647
  20475027.719 4                 109258660.478 4                
  19280835.906 8  19280842.215 7 103211836.603 8  80275884.833 7  19280841.598 7
  22061642.188 5  22061649.355 7 118139107.159 5  91886009.705 7  22061648.461 7
  20270110.375 7  20270114.184 7 108469492.996 7  84365168.754 7  20270114.473 7
  19770113.336 7  19770116.441 7 105534206.125 7  82082241.570 7  19770116.180 7
  23346504.469 4                 124888059.521 4                
 23  9 22 15 50 15.0000000  0 15G10G13G15G16G18G23G26G27G29R06R07R08
                                R21R22R23
  21480034.688 7  21480041.938 8 112878355.685 7  87957192.263 8  21480042.84848
  24207398.742 5                 127210726.063 5                
  21646840.109 6  21646845.074 7 113754910.427 6  88640205.358 7  21646845.88347
  23334079.008 5                 122621381.947 5  95549163.36545  23334084.83645
  20774255.734 6  20774260.707 8 109169450.322 6  85067122.644 8  20774261.06346
  20255299.578 7  20255303.738 8 106442319.304 7  82942115.080 8  20255304.36747
  24081840.219 4  24081850.820 8 126550898.696 4  98611129.951 8  24081851.56647
  22356567.672 5  22356575.965 8 117484558.047 5  91546431.863 8  22356576.67247
  23293692.906 5  23293701.434 7 122409171.887 5  95383766.166 7  23293701.01647
  20477834.148 4                 109273634.869 4                
  19272447.578 7  19272454.203 7 103166931.482 7  80240958.628 7  19272452.879 7
  22045446.750 5  22045453.914 7 118052382.537 5  91818557.267 7  22045453.254 7
  20269255.500 7  20269259.320 7 108464921.471 7  84361613.092 7  20269259.961 7
  19760877.313 8  19760880.152 7 105484903.645 8  82043895.192 7  19760880.445 7
  23331891.406 5                 124809879.948 5                
 23  9 22 15 50 30.0000000  0 15G10G13G15G16G18G23G26G27G29R06R07R08
                                R21R22R23
  21470360.820 7  21470367.832 8 112827518.896 7  87917579.185 8  21470369.24648
  24210115.219 4                 127225003.214 4                
  21646878.703 6  21646883.340 7 113755111.245 6  88640361.798 7  21646884.34047
  23333453.555 5                 122618100.205 5  95546606.10545  23333460.17245
  20770949.531 6  20770954.422 8 109152074.096 6  85053582.710 8  20770954.50446
  20251274.008 6  20251278.582 8 106421164.568 6  82925630.862 8  20251278.90647
  24083904.539 4  24083914.883 8 126561747.110 4  98619583.207 8  24083915.58247
  22344177.461 5  22344184.891 8 117419443.806 5  91495693.496 8  22344185.30948
  23298829.578 5  23298836.824 7 122436162.758 5  95404797.936 7  23298837.42647
  20480664.133 4                 109288739.162 4                
  19264092.656 8  19264099.164 7 103122208.937 8  80206174.442 7  19264098.313 7
  22029265.992 5  22029271.945 7 117965730.788 5  91751161.511 7  22029271.168 7
  20268421.188 7  20268425.844 7 108460457.019 7  84358140.734 7  20268425.664 7
  19751655.500 8  19751658.902 7 105435677.250 8  82005607.991 7  19751658.633 7
  23317271.469 5                 124731678.450 5                
 23  9 22 15 50 45.0000000  0 15G10G13G15G16G18G23G26G27G29R06R07R08
                                R21R22R23
  21460701.672 7  21460708.527 8 112776758.824 7  87878025.889 8  21460709.68848
  24212851.102 5                 127239379.093 5                
  21646943.609 7  21646949.063 7 113755451.896 7  88640627.215 7  21646949.30947
  23332850.508 5                 122614926.231 5  95544132.86245  23332856.58245
  20767653.977 6  20767658.930 8 109134757.480 6  85040089.216 8  20767659.37546
  20247264.922 7  20247270.148 8 106400098.937 7  82909216.078 8  20247270.28147
  24085975.250 4  24085985.543 8 126572627.021 4  98628060.992 8  24085985.89847
  22331802.828 6  22331811.066 8 117354416.597 6  91445022.944 8  22331811.40647
  23303975.977 5  23303983.500 7 122463205.322 5  95425869.993 7  23303983.76647
  20483519.031 5                 109303973.676 5                
  19255772.969 8  19255777.945 7 103077670.425 8  80171533.373 7  19255777.625 7
  22013096.625 6  22013104.746 7 117879153.087 6  91683823.352 7  22013104.086 7
  20267606.547 7  20267611.281 7 108456100.577 7  84354752.359 7  20267611.574 7
  19742447.906 8  19742450.719 7 105386528.229 8  81967380.975 7  19742451.086 7
  23302649.211 5                 124653455.790 5                
 23  9 22 15 51  0.0000000  0 15G10G13G15G16G18G23G26G27G29R06R07R08
                                R21R22R23
  21451056.648 7  21451063.871 8 112726075.062 7  87838532.050 8  21451064.93048
  24215605.734 5                 127253853.083 5                
  21647034.625 6  21647040.012 7 113755931.648 6  88641001.024 7  21647040.59047
  23332266.805 5                 122611859.330 5  95541743.04645  23332273.09845
  20764370.281 6  20764375.254 8 109117500.045 6  85026641.849 8  20764376.12546
  20243273.344 6  20243277.914 8 106379121.756 6  82892870.219 8  20243278.42647
  24088051.273 5  24088062.297 8 126583536.56415  98636569.66318
  22319445.289 5  22319453.309 8 117289476.151 5  91394420.020 8  22319453.48847
  23309131.172 6  23309138.309 7 122490298.789 6  95446981.723 7  23309138.94147
  20486399.898 4                 109319337.353 4                
  19247487.211 7  19247491.926 7 103033315.648 7  80137035.220 7  19247491.758 7
  21996943.367 5  21996950.242 7 117792648.936 5  91616542.389 7  21996950.285 7
  20266813.125 7  20266817.586 7 108451851.790 7  84351447.707 7  20266818.230 7
  19733255.453 7  19733258.863 7 105337456.307 7  81929213.927 7  19733258.684 7
  23288021.953 5                 124575211.605 5                
 23  9 22 15 51 15.0000000  0 15G10G13G15G16G18G23G26G27G29R06R07R08
                                R21R22R23
  21441426.500 7  21441433.609 8 112675468.369 7  87799098.276 8  21441434.98448
  24218377.891 4                 127268425.377 4                
  21647152.508 7  21647157.969 7 113756550.892 7  88641483.508 7  21647158.01647
  23331703.586 5                 122608899.729 5  95539436.78245  23331710.23445
  20761097.758 6  20761102.809 8 109100302.490 6  85013241.129 8  20761102.89546
  20239298.508 7  20239303.324 8 106358233.470 7  82876593.605 8  20239303.87947
  24090133.734 5  24090143.730 8 126594477.962 5  98645095.379 8  24090144.62147
  22307103.828 6  22307112.188 8 117224623.475 6  91343885.462 8  22307112.73447
  23314296.797 6  23314305.148 7 122517443.540 6  95468133.395 7  23314305.05547
  20489302.844 4                 109334830.423 4                
  19239235.188 8  19239240.535 7 102989144.785 8  80102680.101 7  19239240.828 7
  21980803.281 6  21980810.191 7 117706219.954 6  91549319.899 7  21980810.277 7
  20266039.211 7  20266043.926 7 108447711.296 7  84348227.299 7  20266044.688 7
  19724077.602 8  19724081.016 7 105288462.573 8  81891107.686 7  19724080.410 7
  23273391.133 5                 124496946.935 5                
 23  9 22 15 51 30.0000000  0 15G10G13G15G16G18G23G26G27G29R06R07R08
                                R21R22R23
  21431811.977 7  21431818.707 8 112624941.389 7  87759726.604 8  21431820.34848
  24221170.266 4                 127283098.529 4                
  21647297.477 6  21647302.387 7 113757312.111 6  88642076.654 7  21647303.28947
  23331161.625 5                 122606049.958 5  95537216.14446  23331168.35946
  20757837.156 7  20757842.020 8 109083167.654 7  84999889.285 8  20757842.07047
  20235340.844 7  20235346.086 8 106337436.720 7  82860388.339 8  20235346.33247
  24092221.797 4  24092232.250 8 126605452.655 4  98653647.030 8  24092233.42647
  22294780.750 5  22294788.180 8 117159861.598 5  91293421.665 8  22294788.48848
  23319472.172 6  23319480.391 7 122544641.940 6  95489326.876 7  23319480.75047
  20492229.578 4                 109350455.123 4                
  19231018.781 8  19231025.023 7 102945161.354 8  80068470.775 7  19231024.375 7
  21964678.609 6  21964684.957 7 117619869.055 6  91482158.131 7  21964684.531 7
  20265285.813 7  20265290.754 7 108443681.988 7  84345093.369 7  20265291.277 7
  19714914.602 8  19714917.027 7 105239550.029 8  81853064.595 7  19714916.914 7
  23258758.695 5                 124418664.872 5                
 23  9 22 15 51 45.0000000  0 15G10G13G15G16G18G23G26G27G29R06R07R08
                                R21R22R23
  21422211.484 7  21422218.273 8 112574491.673 7  87720415.148 8  21422219.43448
  24223980.578 4                 127297869.780 4                
  21647469.117 6  21647473.609 7 113758212.705 6  88642778.380 7  21647474.19947
  23330638.961 5                 122603307.224 5  95535078.84246  23330645.85246
  20754588.000 7  20754592.383 8 109066093.242 7  84986584.529 8  20754592.50846
  20231400.523 7  20231405.434 8 106316728.998 7  82844252.438 8  20231406.04347
  24094316.977 4  24094326.691 8 126616457.920 4  98662222.486 8  24094327.64847
  22282473.664 5  22282481.422 8 117095188.518 5  91243027.054 8  22282481.56347
  23324657.813 5  23324665.637 7 122571891.407 5  95510560.174 7  23324665.67247
  20495181.852 4                 109366208.666 4                
  19222837.328 8  19222841.887 7 102901362.663 8  80034405.131 7  19222842.086 7
  21948566.992 6  21948574.363 7 117533594.334 6  91415055.631 7  21948573.938 7
  20264553.641 7  20264558.969 7 108439761.495 7  84342044.077 7  20264558.789 7
  19705766.477 8  19705769.773 7 105190716.616 8  81815083.031 7  19705769.277 7
  23244119.906 5                 124340362.839 5                
 23  9 22 15 52  0.0000000  0 15G10G13G15G16G18G23G26G27G29R06R07R08
                                R21R22R23
  21412625.914 7  21412632.574 8 112524118.549 7  87681163.363 8  21412633.65648
  24226811.094 5                 127312737.943 5                
  21647666.648 6  21647671.051 7 113759251.633 6  88643587.894 7  21647671.72347
  23330137.836 5                 122600670.563 5  95533024.33345  23330144.41445
  20751349.969 7  20751354.789 8 109049078.503 7  84973326.280 8  20751355.21946
  20227476.781 7  20227481.074 8 106296109.364 7  82828185.178 8  20227481.74247
  24096415.953 4  24096427.043 8 126627492.585 4  98670820.856 8  24096427.22347
  22270183.516 6  22270191.148 8 117030603.808 6  91192701.305 8  22270191.46948
  23329852.766 6  23329861.422 7 122599190.926 6  95531832.444 7  23329861.09847
  20498158.492 4                 109382089.808 4                
  19214690.109 7  19214694.945 7 102857748.118 7  80000482.711 7  19214694.676 7
  21932469.602 6  21932475.605 7 117447395.373 6  91348012.019 7  21932476.000 7
  20263840.820 7  20263846.102 7 108435949.244 7  84339078.963 7  20263846.156 6
  19696632.563 8  19696636.930 7 105141961.897 8  81777162.704 7  19696636.168 7
  23229477.813 5                 124262040.572 5                
 23  9 22 15 52 15.0000000  0 15G10G13G15G16G18G23G26G27G29R06R07R08
                                R21R22R23
  21403054.414 7  21403061.746 8 112473822.122 7  87641971.349 8  21403062.43448
  24229659.219 5                 127327703.000 5                
  21647891.180 6  21647895.781 7 113760428.917 6  88644505.238 7  21647895.78547
  23329655.453 5                 122598139.844 5  95531052.28945  23329662.82845
  20748123.570 7  20748128.891 8 109032123.726 7  84960114.746 8  20748128.96947
  20223570.078 7  20223574.215 8 106275577.841 7  82812186.582 8  20223574.96947
  24098521.227 4  24098532.840 8 126638556.521 4  98679442.036 8  24098533.07047
  22257909.992 5  22257918.160 8 116966107.854 5  91142444.734 8  22257918.33247
  23335057.547 5  23335065.645 7 122626540.364 5  95553143.593 7  23335066.06347
  20501157.766 4                 109398098.257 4                
  19206577.250 7  19206581.777 7 102814317.979 7  79966703.713 7  19206581.945 7
  21916387.258 6  21916393.977 7 117361272.736 6  91281027.782 7  21916393.785 7
  20263148.445 7  20263152.895 7 108432245.251 7  84336198.040 7  20263154.004 7
  19687514.258 8  19687517.324 7 105093286.250 8  81739303.859 7  19687517.051 7
  23214832.594 5                 124183698.603 5                
 23  9 22 15 52 30.0000000  0 15G10G13G15G16G18G23G26G27G29R06R07R08
                                R21R22R23
  21393498.297 7  21393505.066 8 112423602.717 7  87602839.347 8  21393505.88348
  24232525.078 4                 127342764.760 4                
  21648140.945 6  21648145.746 7 113761744.430 6  88645530.294 7  21648146.08247
  23329194.977 5                 122595714.874 5  95529162.64046  23329201.62146
  20744909.156 7  20744912.996 8 109015229.134 7  84946950.099 8  20744913.80146
  20219678.992 7  20219684.164 8 106255134.421 7  82796256.630 8  20219684.80947
  24100632.820 5  24100643.133 8 126649649.457 5  98688085.830 8  24100643.71547
  22245654.430 5  22245662.102 8 116901701.235 5  91092257.768 8  22245662.45747
  23340272.141 6  23340279.531 7 122653939.639 6  95574493.622 7  23340280.19547
  20504181.734 4                 109414233.680 4                
  19198498.016 8  19198503.324 7 102771072.553 8  79933068.383 7  19198502.957 7
  21900318.586 6  21900326.676 7 117275226.888 6  91214103.273 7  21900324.957 7
  20262477.281 7  20262481.977 7 108428649.916 7  84333401.636 7  20262482.035 6
  19678410.563 8  19678414.203 7 105044690.213 8  81701506.951 7  19678413.648 7
  23200182.586 5                 124105336.794 5                
 23  9 22 15 52 45.0000000  0 15G10G13G15G16G18G23G26G27G29R06R07R08
                                R21R22R23
  21383956.555 7  21383963.211 8 112373459.892 7  87563767.025 8  21383964.23848
  24235408.422 4                 127357922.689 4                
  21648417.836 6  21648422.230 7 113763197.685 6  88646662.670 7  21648422.99247
  23328752.563 5                 122593395.103 5  95527354.97945  23328759.71545
  20741705.070 6  20741710.340 8 108998394.549 6  84933832.226 8  20741710.66046
  20215805.734 7  20215810.539 8 106234778.709 7  82780395.036 8  20215811.21547
  24102748.828 5  24102759.355 8 126660770.805 5  98696751.754 8  24102760.02047
  22233415.094 6  22233423.168 8 116837383.951 6  91042140.416 8  22233423.07448
  23345495.406 6  23345502.457 7 122681388.255 6  95595882.074 7  23345503.21147
  20507229.500 4                 109430495.217 4                
  19190454.242 7  19190459.852 7 102728011.653 7  79899576.579 7  19190459.309 7
  21884264.578 6  21884270.641 7 117189258.545 6  91147239.027 7  21884270.918 7
  20261825.438 7  20261830.820 7 108425162.936 7  84330689.529 7  20261830.992 7
  19669321.961 7  19669323.438 7 104996173.854 7  81663772.003 7  19669325.012 7
  23185531.805 5                 124026955.418 5                
 23  9 22 15 53  0.0000000  0 15G10G13G15G16G18G23G26G27G29R06R07R08
                                R21R22R23
  21374429.750 7  21374436.934 8 112323395.482 7  87524755.806 8  21374437.14548
  24238311.234 3                 127373178.437 3                
  21648720.750 6  21648725.820 7 113764790.309 6  88647903.661 7  21648726.71947
  23328331.742 5                 122591182.275 5  95525630.66745  23328338.81645
  20738513.828 7  20738518.402 8 108981621.968 7  84920762.663 8  20738519.09846
  20211949.570 7  20211954.117 8 106214512.486 7  82764603.158 8  20211954.96147
  24104870.695 4  24104881.758 8 126671922.149 4  98705441.063 8  24104882.16047
  22221192.750 5  22221201.387 8 116773158.287 5  90992094.454 8  22221201.90248
  23350728.414 5  23350735.566 8 122708887.804 5  95617310.230 8  23350736.07847
  20510301.492 4                 109446884.480 4                
  19182444.367 7  19182449.703 7 102685137.133 7  79866229.729 7  19182449.453 7
  21868225.047 6  21868232.332 7 117103369.578 6  91080436.524 7  21868232.023 7
  20261194.461 7  20261199.246 7 108421786.477 7  84328063.356 7  20261199.301 6
  19660247.570 7  19660251.582 7 104947739.583 7  81626100.903 7  19660251.539 7
  23170876.633 5                 123948556.610 5                
 23  9 22 15 53 15.0000000  0 15G10G13G15G16G18G23G26G27G29R06R07R08
                                R21R22R23
  21364916.750 7  21364923.707 8 112273407.183 7  87485803.895 8  21364924.67248
  24241232.773 3                 127388528.938 3                
  21649049.477 6  21649054.336 7 113766519.519 6  88649251.068 7  21649055.26247
  23327930.695 5                 122589073.464 5  95523987.40346  23327937.51246
  20735333.273 7  20735338.059 8 108964908.865 7  84907739.435 8  20735338.48446
  20208109.289 7  20208114.645 8 106194333.019 7  82748878.886 8  20208114.91847
  24106998.555 5  24107008.336 8 126683100.534 5  98714151.422 8  24107009.19947
  22208988.141 5  22208996.754 8 116709021.964 5  90942118.112 8  22208997.30547
  23355969.828 5  23355978.449 7 122736435.505 5  95638775.885 7  23355978.77047
  20513395.961 4                 109463398.228 4                
  19174470.008 7  19174474.836 7 102642446.785 7  79833026.129 7  19174474.824 7
  21852199.602 6  21852206.758 7 117017557.924 6  91013694.172 7  21852207.035 7
  20260584.539 7  20260587.898 7 108418517.679 7  84325520.928 7  20260588.191 7
  19651189.281 8  19651191.863 7 104899384.738 8  81588491.580 7  19651193.035 7
  23156215.945 4                 123870137.786 4                
 23  9 22 15 53 30.0000000  0 14G10G15G16G18G23G26G27G29R06R07R08R21
                                R22R23
  21355419.164 7  21355425.910 8 112223493.299 7  87446909.962 8  21355426.44948
  21649404.852 6  21649409.848 7 113768383.516 6  88650703.508 7  21649410.69947
  23327548.938 5                 122587066.722 5  95522423.65645  23327555.91445
  20732163.539 7  20732168.594 8 108948253.817 7  84894761.469 8  20732169.10546
  20204285.180 7  20204290.566 8 106174238.622 7  82733220.903 8  20204290.92647
  24109130.367 5  24109140.594 8 126694304.104 5  98722881.423 8  24109141.37147
  22196800.633 5  22196809.000 8 116644973.817 5  90892210.478 8  22196808.98847
  23361221.336 5  23361229.121 7 122764029.660 5  95660277.749 7  23361229.50847
  20516513.688 4                 109480034.559 4                
  19166528.836 7  19166534.109 7 102599938.914 7  79799964.458 7  19166534.234 7
  21836190.523 6  21836196.000 7 116931822.360 6  90947010.977 7  21836196.164 7
  20259993.055 7  20259997.469 7 108415355.395 7  84323061.343 7  20259997.406 6
  19642146.172 8  19642149.512 7 104851108.340 8  81550943.275 7  19642148.738 7
  23141552.227 4                 123791697.904 4                
 23  9 22 15 53 45.0000000  0 14G10G15G16G18G23G26G27G29R06R07R08R21
                                R22R23
  21345935.102 7  21345942.105 8 112173655.909 7  87408075.642 8  21345942.63348
  21649785.078 6  21649790.348 7 113770384.001 6  88652262.309 7  21649791.56647
  23327186.938 5                 122585163.831 5  95520940.83645  23327193.44945
  20729005.711 6  20729010.574 8 108931658.881 6  84881830.323 8  20729010.96147
  20200478.672 7  20200482.977 8 106154231.179 7  82717630.681 8  20200483.88747
  24111267.633 5  24111278.375 8 126705534.509 5  98731632.328 8  24111278.50447
  22184629.992 5  22184637.266 8 116581016.100 5  90842373.290 8  22184637.83248
  23366480.984 5  23366489.484 8 122791671.854 5  95681817.056 8  23366489.71947
  20519654.133 4                 109496794.979 4                
  19158622.617 8  19158627.961 7 102557615.641 8  79767046.364 7  19158627.371 7
  21820194.641 6  21820201.074 7 116846165.345 6  90880388.887 7  21820200.648 7
  20259422.438 7  20259426.277 7 108412301.553 7  84320686.105 7  20259426.566 6
  19633117.531 7  19633121.445 7 104802912.766 7  81513457.825 7  19633121.219 7
  23126884.930 4                 123713238.974 4                
 23  9 22 15 54  0.0000000  0 14G10G15G16G18G23G26G27G29R06R07R08R21
                                R22R23
  21636259.031 7  21636265.781 8 113699317.437 7  88596902.816 8  21636266.48048
  21949984.430 6  21949989.645 7 115347939.922 6  89881526.637 7  21949990.07447
  23626636.531 5                 124158783.504 5  96747137.93745  23626643.25445
  21025652.109 7  21025657.281 8 110490544.403 7  86096546.295 8  21025657.82846
  20496480.539 7  20496485.320 8 107709731.006 7  83929708.459 8  20496485.45747
  24413201.648 5  24413212.547 8 128292209.767 5  99968002.590 8  24413213.40247
  22472269.578 5  22472277.734 8 118092572.642 5  92020209.566 8  22472277.59048
  23671542.969 5  23671551.215 7 124394779.204 5  96930991.521 7  23671551.02047
  20822610.523 4                 111113427.020 4                
  19450543.141 8  19450548.516 7 104120291.522 8  80982460.940 7  19450548.305 7
  22104007.281 6  22104012.594 7 118365967.272 6  92062457.071 7  22104012.637 7
  20558665.070 7  20558666.828 7 110013605.669 7  85566144.837 7  20558668.523 6
  19923897.172 8  19923901.000 7 106355113.087 8  82720724.729 7  19923899.918 7
  23412008.250 4                 125238453.298 4                
 23  9 22 15 54 15.0000000  0 14G10G15G16G18G23G26G27G29R06R07R08R21
                                R22R23
  21626804.219 7  21626810.977 8 113649631.498 7  88558186.504 8  21626811.46548
  21950416.523 6  21950421.645 7 115350211.607 6  89883296.770 7  21950422.51247
  23626313.461 5                 124157085.945 5  96745815.16245  23626320.39545
  21022516.672 7  21022521.133 8 110474068.554 7  86083707.950 8  21022522.13746
  20492705.703 7  20492710.379 8 107689895.622 7  83914252.307 8  20492710.75047
  24415348.875 5  24415359.402 8 128303491.339 5  99976793.359 8  24415360.00847
  22460132.820 5  22460141.063 8 118028795.498 5  91970513.095 8  22460141.88748
  23676820.344 5  23676828.973 8 124422515.387 5  96952604.053 8  23676829.32847
  20825797.227 4                 111130432.868 4                
  19442705.430 8  19442712.176 7 104078336.393 8  80949829.173 7  19442710.930 7
  22088040.953 6  22088046.563 7 118280467.476 6  91995957.259 7  22088046.137 7
  20558133.734 7  20558137.305 7 110010767.567 7  85563937.389 7  20558138.180 6
  19914898.273 8  19914902.414 7 106307078.724 8  82683364.652 7  19914901.992 7
  23397333.664 4                 125159955.891 4                
 23  9 22 15 54 30.0000000  0 14G10G15G16G18G23G26G27G29R06R07R08R21
                                R22R23
  21617363.305 7  21617370.059 8 113600021.072 7  88519529.041 8  21617371.07848
  21950874.734 6  21950879.652 7 115352617.864 6  89885171.747 7  21950880.29347
  23626010.492 5                 124155490.349 5  96744571.80345  23626016.97745
  21019392.938 7  21019398.043 8 110457651.950 7  86070915.776 8  21019398.39146
  20488947.625 6  20488952.285 8 107670145.630 6  83898862.695 8  20488952.25847
  24417500.422 4  24417510.898 8 128314797.634 4  99985603.392 8  24417511.57047
  22448013.820 6  22448021.777 8 117965108.734 6  91920887.049 8  22448022.00448
  23682107.461 5  23682115.469 8 124450297.729 5  96974252.553 8  23682116.17647
  20829006.773 4                 111147560.297 4                
  19434902.133 7  19434908.168 7 104036565.166 7  80917340.448 7  19434907.758 7
  22072088.156 5  22072092.727 7 118195046.038 5  91929518.393 7  22072093.711 6
  20557623.211 7  20557626.316 7 110008037.156 7  85561813.700 7  20557627.664 6
  19905914.461 7  19905919.137 7 106259124.945 7  82646067.279 7  19905918.727 7
  23382656.367 4                 125081439.209 4                
 23  9 22 15 54 45.0000000  0 14G10G15G16G18G23G26G27G29R06R07R08R21
                                R22R23
  21607937.602 7  21607943.711 8 113550485.733 7  88480930.090 8  21607944.91448
  21951357.594 6  21951362.691 7 115355158.241 6  89887151.219 7  21951363.52047
  23625726.227 5                 124153995.997 5  96743407.28945  23625732.07845
  21016280.109 6  21016284.504 8 110441294.341 6  86058169.573 8  21016285.25846
  20485205.328 7  20485209.547 8 107650480.507 7  83883539.217 8  20485210.22747
  24419655.789 4  24419666.684 8 128326127.815 4  99994432.034 8  24419667.39547
  22435911.789 6  22435919.430 8 117901512.290 6  91871331.378 8  22435919.57448
  23687403.086 5  23687411.266 8 124478125.711 5  96995936.637 8  23687411.21147
  20832238.711 4                 111164808.425 4                
  19427133.328 7  19427139.883 7 103994977.528 7  80884994.515 7  19427139.027 7
  22056150.742 5  22056156.742 7 118109703.854 5  91863141.176 7  22056156.902 7
  20557132.773 7  20557137.039 7 110005413.772 7  85559773.279 7  20557137.328 6
  19896946.406 7  19896949.266 7 106211251.641 7  82608832.478 7  19896949.754 7
  23367974.930 4                 125002902.913 4                
 23  9 22 15 55  0.0000000  0 14G10G15G16G18G23G26G27G29R06R07R08R21
                                R22R23
  21598525.609 7  21598532.383 8 113501027.046 7  88442390.848 8  21598532.98048
  21951867.070 6  21951872.137 7 115357834.272 6  89889236.425 7  21951872.32047
  23625460.930 5                 124152604.236 5  96742322.76945  23625466.84045
  21013178.875 7  21013183.793 8 110424997.461 7  86045470.696 8  21013183.91047
  20481479.641 6  20481484.059 8 107630901.826 6  83868283.091 8  20481484.88747
  24421817.180 5  24421827.746 8 128337483.344 5 100003280.460 8  24421828.75447
  22423827.641 6  22423835.094 8 117838008.154 6  91821847.639 8  22423835.10948
  23692707.938 5  23692716.121 8 124506000.734 5  97017657.325 8  23692716.43047
  20835496.039 4                 111182178.578 4                
  19419399.555 8  19419405.496 7 103953575.188 8  80852792.684 7  19419404.684 7
  22040228.203 5  22040234.500 7 118024442.441 5  91796826.752 7  22040234.781 6
  20556663.555 7  20556666.590 7 110002899.682 7  85557817.832 7  20556667.703 6
  19887993.617 7  19887997.457 7 106163460.778 7  82571661.810 7  19887997.180 7
  23353290.180 5                 124924348.892 5                
 23  9 22 15 55 15.0000000  0 14G10G15G16G18G23G26G27G29R06R07R08R21
                                R22R23
  21589128.578 7  21589134.977 8 113451644.972 7  88403911.320 8  21589135.92648
  21952402.023 6  21952407.023 7 115360645.567 6  89891427.003 7  21952407.65247
  23625215.875 5                 124151314.750 5  96741317.98045  23625221.74245
  21010089.641 7  21010094.129 8 110408761.422 7  86032819.219 8  21010094.52346
  20477770.039 7  20477774.582 8 107611409.423 7  83853094.198 8  20477775.43047
  24423982.781 5  24423993.477 8 128348863.772 5 100012148.264 8  24423994.14147
  22411760.617 6  22411768.602 8 117774596.691 6  91772436.105 8  22411768.71547
  23698021.563 5  23698029.266 7 124533922.478 5  97039414.447 7  23698030.31647
  20838772.445 4                 111199670.183 4                
  19411699.656 8  19411705.227 7 103912358.228 8  80820735.046 7  19411704.973 7
  22024322.484 6  22024327.484 7 117939262.506 6  91730575.700 7  22024327.996 6
  20556214.891 7  20556217.012 6 110000494.630 7  85555947.195 6  20556218.711 6
  19879056.500 7  19879060.164 7 106115752.969 7  82534555.719 7  19879059.512 7
  23338601.078 4                 124845777.579 4                
 23  9 22 15 55 30.0000000  0 15G10G15G16G18G23G26G27G29G32R06R07R08
                                R21R22R23
  21579745.844 7  21579752.855 8 113402339.244 7  88365491.271 8  21579753.57848
  21952962.344 6  21952967.715 7 115363591.437 6  89893722.479 7  21952968.49247
  23624989.273 5                 124150126.763 5  96740392.20645  23624995.97745
  21007011.320 6  21007015.801 8 110392585.785 6  86020214.808 8  21007016.88746
  20474077.195 7  20474082.176 8 107592002.701 7  83837972.063 8  20474082.76647
  24426153.328 4  24426163.891 8 128360268.295 4 100021034.839 8  24426164.28947
  22399711.297 6  22399718.934 8 117711277.733 6  91723096.660 8  22399719.41848
  23703343.453 5  23703351.266 8 124561890.287 5  97061207.481 8  23703351.89547
  24936491.359 4  24936503.746 7 131042139.69914 102110790.12217  24936503.62546
  20842073.531 4                 111217282.271 4                
  19404034.781 7  19404039.316 7 103871326.003 7  80788821.098 7  19404039.926 7
  22008430.570 5  22008436.840 7 117854163.797 5  91664387.844 7  22008436.883 7
  20555785.594 7  20555788.570 7 109998198.253 7  85554161.085 7  20555789.563 6
  19870134.891 8  19870139.246 7 106068127.851 8  82497513.969 7  19870138.367 7
  23323910.398 4                 124767188.619 4                
 23  9 22 15 55 45.0000000  0 15G10G15G16G18G23G26G27G29G32R06R07R08
                                R21R22R23
  21570377.992 7  21570384.410 8 113353111.935 7  88327132.333 8  21570385.42648
  21953549.094 6  21953554.891 7 115366673.806 6  89896124.294 7  21953555.28147
  23624783.516 5                 124149042.190 5  96739547.06245  23624790.62545
  21003945.109 7  21003949.840 8 110376472.801 7  86007659.228 8  21003950.59446
  20470400.727 7  20470405.746 8 107572683.629 7  83822918.235 8  20470406.48447
  24428327.977 4  24428339.344 8 128371698.801 4 100029941.666 8  24428339.43846
  22387680.367 6  22387688.754 8 117648053.777 6  91673831.238 8  22387688.39848
  23708674.297 5  23708682.203 8 124589906.030 5  97083037.831 8  23708683.24647
  24921280.320 4  24921292.121 7 130962203.775 4 102048502.400 7  24921291.99246
  20845396.977 4                 111235016.786 4                
  19396404.398 7  19396411.059 7 103830481.012 7  80757052.772 7  19396410.129 7
  21992554.961 5  21992560.484 7 117769148.755 5  91598265.058 7  21992560.293 7
  20555376.867 7  20555379.785 6 109996012.717 7  85552461.207 6  20555380.660 6
  19861229.102 8  19861232.473 7 106020588.043 8  82460538.559 7  19861232.227 7
  23309216.352 4                 124688584.272 4                
 23  9 22 15 56  0.0000000  0 15G10G15G16G18G23G26G27G29G32R06R07R08
                                R21R22R23
  21561025.266 7  21561032.105 8 113303961.597 7  88288833.372 8  21561033.10948
  21954161.203 6  21954166.852 7 115369891.094 6  89898631.243 7  21954167.49647
  23624595.891 5                 124148059.247 5  96738781.11345  23624603.60245
  21000890.695 7  21000894.766 8 110360421.238 7  85995151.495 8  21000895.79346
  20466740.898 7  20466746.234 8 107553450.729 7  83807931.552 8  20466746.68047
  24430506.461 3  24430518.398 8 128383153.501 3 100038867.320 8  24430519.46146
  22375666.883 6  22375675.039 8 117584923.806 6  91624639.051 8  22375675.34448
  23714014.469 5  23714022.770 7 124617968.108 5  97104904.306 7  23714023.39847
  24906068.047 3  24906080.699 7 130882262.938 3 101986210.830 7  24906080.15246
  20848742.641 4                 111252871.755 4                
  19388808.773 8  19388814.457 7 103789822.070 8  80725429.168 7  19388813.863 7
  21976694.547 5  21976700.555 7 117684217.076 5  91532207.100 7  21976700.246 6
  20554988.922 7  20554991.945 7 109993936.885 7  85550846.624 7  20554993.293 6
  19852338.891 7  19852342.871 7 105973132.511 7  82423628.687 7  19852342.395 7
  23294519.500 4                 124609963.738 4                
 23  9 22 15 56 15.0000000  0 15G10G15G16G18G23G26G27G29G32R06R07R08
                                R21R22R23
  21551687.266 7  21551694.352 8 113254890.303 7  88250596.004 8  21551695.13348
  21954799.688 6  21954804.777 7 115373244.908 6  89901244.578 7  21954805.75047
  23624428.891 5                 124147179.632 5  96738095.60245  23624436.27345
  20997847.883 7  20997852.934 8 110344433.044 7  85982693.167 8  20997853.49247
  20463097.555 7  20463103.117 8 107534305.785 7  83793013.400 8  20463102.96147
  24432692.016 4  24432703.301 8 128394633.988 4 100047813.085 8  24432704.23047
  22363672.125 6  22363679.336 8 117521890.031 6  91575521.825 8  22363680.10548
  23719364.273 5  23719371.348 8 124646078.112 5  97126808.125 8  23719372.47747
  24890854.922 2  24890867.605 7 130802319.421 2 101923917.217 7  24890866.82846
  20852112.234 4                 111270848.430 4                
  19381248.891 8  19381254.199 7 103749351.086 8  80693951.730 7  19381253.426 7
  21960850.406 5  21960855.289 7 117599370.705 5  91466215.507 7  21960855.098 7
  20554621.391 7  20554624.547 7 109991972.885 7  85549319.049 7  20554625.895 6
  19843465.336 7  19843469.465 7 105925763.561 7  82386786.151 7  19843468.387 7
  23279819.469 3                 124531328.912 3                
